[2026-04-15 09:31:43] [AIS DEBUG] PROM unika: skręt w lewo

------------------------------------------------
[2026-04-15 09:31:43] [FIZYKA] SOG: 10.8 kn (Cel: 10.9 kn) | Silnik: Wylaczony (0 RPM)
[2026-04-15 09:31:43] [METEO]  TWS: 34.7 kn z 239 st. | AWS: 30.7 kn (Kąt: 256.9 st.)
[2026-04-15 09:31:43] --- PAKIET NMEA WYSŁANY DO SIECI ---
[2026-04-15 09:31:43] $GPRMC,093143.00,A,5531.5983,N,01800.0000,E,10.8,0.0,150426,5.0,E*60
[2026-04-15 09:31:43] $GPGGA,093143.00,5531.5983,N,01800.0000,E,1,12,1.0,38.6,M,0.0,M,,*63
[2026-04-15 09:31:43] $GPVTG,0.0,T,0.0,M,10.8,N,19.9,K*46
[2026-04-15 09:31:43] $IIHDT,4.0,T*26
[2026-04-15 09:31:43] $WIMWV,256.9,R,30.7,N,A*1F
[2026-04-15 09:31:43] $VHW,0.0,T,,M,10.8,N,,K*6C
[2026-04-15 09:31:43] $SDDPT,38.6,0.0*6A
[2026-04-15 09:31:43] $WIMWD,239.3,T,239.3,M,34.7,N,17.9,M*55
[2026-04-15 09:31:43] $IIHDG,0.0,,,5.0,E*27
[2026-04-15 09:31:43] !AIVDM,1,1,,A,13pr;@@00w1Bb5hOiUV6AE1p0000,0*70
[2026-04-15 09:31:43] !AIVDM,1,1,,A,13pr;@P01T1BE?vOgGP0n0cp0000,0*65
[2026-04-15 09:31:43] !AIVDM,1,1,,A,13pr;@h0001Bng0OhN800?wp0000,0*26
[2026-04-15 09:31:46] [AIS DEBUG] PROM zwiększa prędkość (powrót do bazowej)

------------------------------------------------
[2026-04-15 09:31:46] [FIZYKA] SOG: 10.8 kn (Cel: 10.9 kn) | Silnik: Wylaczony (0 RPM)
[2026-04-15 09:31:46] [METEO]  TWS: 34.7 kn z 239 st. | AWS: 30.7 kn (Kąt: 256.8 st.)
[2026-04-15 09:31:46] --- PAKIET NMEA WYSŁANY DO SIECI ---
[2026-04-15 09:31:46] $GPRMC,093146.00,A,5531.6072,N,01800.0000,E,10.8,0.0,150426,5.0,E*61
[2026-04-15 09:31:46] $GPGGA,093146.00,5531.6072,N,01800.0000,E,1,12,1.0,39.1,M,0.0,M,,*64
[2026-04-15 09:31:46] $GPVTG,0.0,T,0.0,M,10.8,N,19.9,K*46
[2026-04-15 09:31:46] $IIHDT,4.0,T*26
[2026-04-15 09:31:46] $WIMWV,256.8,R,30.7,N,A*1E
[2026-04-15 09:31:46] $VHW,0.0,T,,M,10.8,N,,K*6C
[2026-04-15 09:31:46] !AIVDM,1,1,,A,13pr;@@0111Bb6ROiUI6LU;p0000,0*06
[2026-04-15 09:31:46] !AIVDM,1,1,,A,13pr;@P01T1BEA`OgGkPlPcp0000,0*34
[2026-04-15 09:31:46] !AIVDM,1,1,,A,13pr;@h0001Bng0OhN800?wp0000,0*26
[2026-04-15 09:31:49] [AIS DEBUG] PROM zmniejsza prędkość podczas unikania
[2026-04-15 09:31:49] [AIS DEBUG] PROM unika: skręt w lewo

------------------------------------------------
[2026-04-15 09:31:49] [FIZYKA] SOG: 10.8 kn (Cel: 10.9 kn) | Silnik: Wylaczony (0 RPM)
[2026-04-15 09:31:49] [METEO]  TWS: 34.7 kn z 239 st. | AWS: 30.7 kn (Kąt: 256.8 st.)
[2026-04-15 09:31:49] --- PAKIET NMEA WYSŁANY DO SIECI ---
[2026-04-15 09:31:49] $GPRMC,093149.00,A,5531.6161,N,01800.0000,E,10.8,0.0,150426,5.0,E*6D
[2026-04-15 09:31:49] $GPGGA,093149.00,5531.6161,N,01800.0000,E,1,12,1.0,39.7,M,0.0,M,,*6E
[2026-04-15 09:31:49] $GPVTG,0.0,T,0.0,M,10.8,N,20.0,K*45
[2026-04-15 09:31:49] $IIHDT,4.0,T*26
[2026-04-15 09:31:49] $WIMWV,256.8,R,30.7,N,A*1E
[2026-04-15 09:31:49] $VHW,0.0,T,,M,10.8,N,,K*6C
[2026-04-15 09:31:49] $SDDPT,39.7,0.0*6A
[2026-04-15 09:31:49] $WIMWD,239.2,T,239.2,M,34.7,N,17.9,M*55
[2026-04-15 09:31:49] $IIHDG,0.0,,,5.0,E*27
[2026-04-15 09:31:49] !AIVDM,1,1,,A,13pr;@@00t1Bb7NOiU=6AE1p0000,0*3C
[2026-04-15 09:31:49] !AIVDM,1,1,,A,13pr;@P01T1BEC>OgH70k0ap0000,0*3E
[2026-04-15 09:31:49] !AIVDM,1,1,,A,13pr;@h0001Bng0OhN800?wp0000,0*26
[2026-04-15 09:31:52] [AIS DEBUG] PROM zwiększa prędkość (powrót do bazowej)

------------------------------------------------
[2026-04-15 09:31:52] [FIZYKA] SOG: 10.8 kn (Cel: 10.9 kn) | Silnik: Wylaczony (0 RPM)
[2026-04-15 09:31:52] [METEO]  TWS: 34.7 kn z 239 st. | AWS: 30.6 kn (Kąt: 256.7 st.)
[2026-04-15 09:31:52] --- PAKIET NMEA WYSŁANY DO SIECI ---
[2026-04-15 09:31:52] $GPRMC,093152.00,A,5531.6251,N,01800.0000,E,10.8,0.0,150426,5.0,E*67
[2026-04-15 09:31:52] $GPGGA,093152.00,5531.6251,N,01800.0000,E,1,12,1.0,40.2,M,0.0,M,,*6F
[2026-04-15 09:31:52] $GPVTG,0.0,T,0.0,M,10.8,N,20.0,K*45
[2026-04-15 09:31:52] $IIHDT,4.0,T*26
[2026-04-15 09:31:52] $WIMWV,256.7,R,30.6,N,A*10
[2026-04-15 09:31:52] $VHW,0.0,T,,M,10.8,N,,K*6C
[2026-04-15 09:31:52] !AIVDM,1,1,,A,13pr;@@00v1Bb8>OiU0FLU;p0000,0*2B
[2026-04-15 09:31:52] !AIVDM,1,1,,A,13pr;@P01T1BEDlOgHJPiPWp0000,0*22
[2026-04-15 09:31:52] !AIVDM,1,1,,A,13pr;@h0001Bng0OhN800?wp0000,0*26
[2026-04-15 09:31:55] [AIS DEBUG] PROM unika: skręt w lewo

------------------------------------------------
[2026-04-15 09:31:55] [FIZYKA] SOG: 10.8 kn (Cel: 10.9 kn) | Silnik: Wylaczony (0 RPM)
[2026-04-15 09:31:55] [METEO]  TWS: 34.8 kn z 239 st. | AWS: 30.6 kn (Kąt: 256.6 st.)
[2026-04-15 09:31:55] --- PAKIET NMEA WYSŁANY DO SIECI ---
[2026-04-15 09:31:55] $GPRMC,093155.00,A,5531.6340,N,01800.0000,E,10.8,0.0,150426,5.0,E*61
[2026-04-15 09:31:55] $GPGGA,093155.00,5531.6340,N,01800.0000,E,1,12,1.0,40.6,M,0.0,M,,*6D
[2026-04-15 09:31:55] $GPVTG,0.0,T,0.0,M,10.8,N,20.0,K*45
[2026-04-15 09:31:55] $IIHDT,4.0,T*26
[2026-04-15 09:31:55] $WIMWV,256.6,R,30.6,N,A*11
[2026-04-15 09:31:55] $VHW,0.0,T,,M,10.8,N,,K*6C
[2026-04-15 09:31:55] $SDDPT,40.6,0.0*65
[2026-04-15 09:31:55] $WIMWD,239.1,T,239.1,M,34.8,N,17.9,M*5A
[2026-04-15 09:31:55] $IIHDG,0.0,,,5.0,E*27
[2026-04-15 09:31:55] $IIVLW,1.6,N,1.6,N*4D
[2026-04-15 09:31:55] $IIRPM,E,1,0,,A*66
[2026-04-15 09:31:55] $GPZDA,093155.00,15,04,2026,,*6B
[2026-04-15 09:31:55] !AIVDM,1,1,,A,13pr;@@00v1Bb9<OiTknAE1p0000,0*4D
[2026-04-15 09:31:55] !AIVDM,1,1,,A,13pr;@P01T1BEFDOgHehh0Wp0000,0*7E
[2026-04-15 09:31:55] !AIVDM,1,1,,A,13pr;@h0001Bng0OhN800?wp0000,0*26
[2026-04-15 09:31:58] [AIS DEBUG] PROM zwiększa prędkość (powrót do bazowej)

------------------------------------------------
[2026-04-15 09:31:58] [FIZYKA] SOG: 10.8 kn (Cel: 10.9 kn) | Silnik: Wylaczony (0 RPM)
[2026-04-15 09:31:58] [METEO]  TWS: 34.8 kn z 239 st. | AWS: 30.6 kn (Kąt: 256.6 st.)
[2026-04-15 09:31:58] --- PAKIET NMEA WYSŁANY DO SIECI ---
[2026-04-15 09:31:58] $GPRMC,093158.00,A,5531.6429,N,01800.0000,E,10.8,0.0,150426,5.0,E*64
[2026-04-15 09:31:58] $GPGGA,093158.00,5531.6429,N,01800.0000,E,1,12,1.0,41.1,M,0.0,M,,*6E
[2026-04-15 09:31:58] $GPVTG,0.0,T,0.0,M,10.8,N,20.0,K*45
[2026-04-15 09:31:58] $IIHDT,4.0,T*26
[2026-04-15 09:31:58] $WIMWV,256.6,R,30.6,N,A*11
[2026-04-15 09:31:58] $VHW,0.0,T,,M,10.8,N,,K*6C
[2026-04-15 09:31:58] !AIVDM,1,1,,A,13pr;@@0101Bb9vOiTVVLU;p0000,0*52
[2026-04-15 09:31:58] !AIVDM,1,1,,A,13pr;@P01T1BEGjOgI20fPUp0000,0*33
[2026-04-15 09:31:58] !AIVDM,1,1,,A,13pr;@h0001Bng0OhN800?wp0000,0*26
[2026-04-15 09:32:01] [AIS DEBUG] PROM zwiększa prędkość (powrót do bazowej)

------------------------------------------------
[2026-04-15 09:32:01] [FIZYKA] SOG: 10.8 kn (Cel: 10.9 kn) | Silnik: Wylaczony (0 RPM)
[2026-04-15 09:32:01] [METEO]  TWS: 34.8 kn z 239 st. | AWS: 30.6 kn (Kąt: 256.5 st.)
[2026-04-15 09:32:01] --- PAKIET NMEA WYSŁANY DO SIECI ---
[2026-04-15 09:32:01] $GPRMC,093201.00,A,5531.6518,N,01800.0000,E,10.8,0.0,150426,5.0,E*68
[2026-04-15 09:32:01] $GPGGA,093201.00,5531.6518,N,01800.0000,E,1,12,1.0,41.5,M,0.0,M,,*66
[2026-04-15 09:32:01] $GPVTG,0.0,T,0.0,M,10.8,N,20.0,K*45
[2026-04-15 09:32:01] $IIHDT,4.0,T*26
[2026-04-15 09:32:01] $WIMWV,256.5,R,30.6,N,A*12
[2026-04-15 09:32:01] $VHW,0.0,T,,M,10.8,N,,K*6C
[2026-04-15 09:32:01] $SDDPT,41.5,0.0*67
[2026-04-15 09:32:01] $WIMWD,239.0,T,239.0,M,34.8,N,17.9,M*5A
[2026-04-15 09:32:01] $IIHDG,0.0,,,5.0,E*27
[2026-04-15 09:32:01] !AIVDM,1,1,,A,13pr;@@0121Bb:ROiTHnWmCp0000,0*0A
[2026-04-15 09:32:01] !AIVDM,1,1,,A,13pr;@P01T1BEI>OgIF0e0Up0000,0*7E
[2026-04-15 09:32:01] !AIVDM,1,1,,A,13pr;@h0001Bng0OhN800?wp0000,0*26
[2026-04-15 09:32:04] [AIS DEBUG] PROM zmniejsza prędkość podczas unikania
[2026-04-15 09:32:04] [AIS DEBUG] PROM unika: skręt w lewo

------------------------------------------------
[2026-04-15 09:32:04] [FIZYKA] SOG: 10.8 kn (Cel: 10.9 kn) | Silnik: Wylaczony (0 RPM)
[2026-04-15 09:32:04] [METEO]  TWS: 34.8 kn z 239 st. | AWS: 30.6 kn (Kąt: 256.5 st.)
[2026-04-15 09:32:04] --- PAKIET NMEA WYSŁANY DO SIECI ---
[2026-04-15 09:32:04] $GPRMC,093204.00,A,5531.6608,N,01800.0000,E,10.8,0.0,150426,5.0,E*6F
[2026-04-15 09:32:04] $GPGGA,093204.00,5531.6608,N,01800.0000,E,1,12,1.0,41.9,M,0.0,M,,*6D
[2026-04-15 09:32:04] $GPVTG,0.0,T,0.0,M,10.8,N,20.0,K*45
[2026-04-15 09:32:04] $IIHDT,4.0,T*26
[2026-04-15 09:32:04] $WIMWV,256.5,R,30.6,N,A*12
[2026-04-15 09:32:04] $VHW,0.0,T,,M,10.8,N,,K*6C
[2026-04-15 09:32:04] !AIVDM,1,1,,A,13pr;@@00u1Bb;BOiT<FLU;p0000,0*5A
[2026-04-15 09:32:04] !AIVDM,1,1,,A,13pr;@P01T1BEJTOgIb0cPSp0000,0*53
[2026-04-15 09:32:04] !AIVDM,1,1,,A,13pr;@h0001Bng0OhN800?wp0000,0*26
[2026-04-15 09:32:07] [AIS DEBUG] PROM zwiększa prędkość (powrót do bazowej)

------------------------------------------------
[2026-04-15 09:32:07] [FIZYKA] SOG: 10.8 kn (Cel: 10.9 kn) | Silnik: Wylaczony (0 RPM)
[2026-04-15 09:32:07] [METEO]  TWS: 34.8 kn z 239 st. | AWS: 30.6 kn (Kąt: 256.5 st.)
[2026-04-15 09:32:07] --- PAKIET NMEA WYSŁANY DO SIECI ---
[2026-04-15 09:32:07] $GPRMC,093207.00,A,5531.6697,N,01800.0000,E,10.8,0.0,150426,5.0,E*6A
[2026-04-15 09:32:07] $GPGGA,093207.00,5531.6697,N,01800.0000,E,1,12,1.0,42.2,M,0.0,M,,*60
[2026-04-15 09:32:07] $GPVTG,0.0,T,0.0,M,10.8,N,20.0,K*45
[2026-04-15 09:32:07] $IIHDT,4.0,T*26
[2026-04-15 09:32:07] $WIMWV,256.5,R,30.6,N,A*12
[2026-04-15 09:32:07] $VHW,0.0,T,,M,10.8,N,,K*6C
[2026-04-15 09:32:07] $SDDPT,42.2,0.0*63
[2026-04-15 09:32:07] $WIMWD,238.9,T,238.9,M,34.8,N,17.9,M*5A
[2026-04-15 09:32:07] $IIHDG,0.0,,,5.0,E*27
[2026-04-15 09:32:07] !AIVDM,1,1,,A,13pr;@@00w1Bb;nOiSw6WmCp0000,0*13
[2026-04-15 09:32:07] !AIVDM,1,1,,A,13pr;@P01T1BEKpOgIv0b0Qp0000,0*01
[2026-04-15 09:32:07] !AIVDM,1,1,,A,13pr;@h0001Bng0OhN800?wp0000,0*26
[2026-04-15 09:32:10] [AIS DEBUG] PROM unika: skręt w lewo

------------------------------------------------
[2026-04-15 09:32:10] [FIZYKA] SOG: 10.8 kn (Cel: 10.9 kn) | Silnik: Wylaczony (0 RPM)
[2026-04-15 09:32:10] [METEO]  TWS: 34.8 kn z 239 st. | AWS: 30.6 kn (Kąt: 256.4 st.)
[2026-04-15 09:32:10] --- PAKIET NMEA WYSŁANY DO SIECI ---
[2026-04-15 09:32:10] $GPRMC,093210.00,A,5531.6786,N,01800.0000,E,10.8,0.0,150426,5.0,E*6D
[2026-04-15 09:32:10] $GPGGA,093210.00,5531.6786,N,01800.0000,E,1,12,1.0,42.4,M,0.0,M,,*61
[2026-04-15 09:32:10] $GPVTG,0.0,T,0.0,M,10.8,N,20.0,K*45
[2026-04-15 09:32:10] $IIHDT,4.0,T*26
[2026-04-15 09:32:10] $WIMWV,256.4,R,30.6,N,A*13
[2026-04-15 09:32:10] $VHW,0.0,T,,M,10.8,N,,K*6C
[2026-04-15 09:32:10] $IIVLW,1.7,N,1.7,N*4D
[2026-04-15 09:32:10] $IIRPM,E,1,0,,A*66
[2026-04-15 09:32:10] $GPZDA,093210.00,15,04,2026,,*69
[2026-04-15 09:32:10] !AIVDM,1,1,,A,13pr;@@00w1Bb<VOiSj6LU;p0000,0*6A
[2026-04-15 09:32:10] !AIVDM,1,1,,A,13pr;@P01T1BEM<OgJB0`PQp0000,0*1E
[2026-04-15 09:32:10] !AIVDM,1,1,,A,13pr;@h0001Bng0OhN800?wp0000,0*26
[2026-04-15 09:32:13] [AIS DEBUG] PROM zwiększa prędkość (powrót do bazowej)

------------------------------------------------
[2026-04-15 09:32:13] [FIZYKA] SOG: 10.8 kn (Cel: 10.9 kn) | Silnik: Wylaczony (0 RPM)
[2026-04-15 09:32:13] [METEO]  TWS: 34.8 kn z 239 st. | AWS: 30.6 kn (Kąt: 256.4 st.)
[2026-04-15 09:32:13] --- PAKIET NMEA WYSŁANY DO SIECI ---
[2026-04-15 09:32:13] $GPRMC,093213.00,A,5531.6875,N,01800.0000,E,10.8,0.0,150426,5.0,E*6D
[2026-04-15 09:32:13] $GPGGA,093213.00,5531.6875,N,01800.0000,E,1,12,1.0,42.7,M,0.0,M,,*62
[2026-04-15 09:32:13] $GPVTG,0.0,T,0.0,M,10.8,N,20.0,K*45
[2026-04-15 09:32:13] $IIHDT,4.0,T*26
[2026-04-15 09:32:13] $WIMWV,256.4,R,30.6,N,A*13
[2026-04-15 09:32:13] $VHW,0.0,T,,M,10.8,N,,K*6C
[2026-04-15 09:32:13] $SDDPT,42.7,0.0*66
[2026-04-15 09:32:13] $WIMWD,238.8,T,238.8,M,34.8,N,17.9,M*5A
[2026-04-15 09:32:13] $IIHDG,0.0,,,5.0,E*27
[2026-04-15 09:32:13] !AIVDM,1,1,,A,13pr;@@0111Bb=8OiSTFWmCp0000,0*57
[2026-04-15 09:32:13] !AIVDM,1,1,,A,13pr;@P01T1BENLOgJV0W0Op0000,0*30
[2026-04-15 09:32:13] !AIVDM,1,1,,A,13pr;@h0001Bng0OhN800?wp0000,0*26
[2026-04-15 09:32:16] [AIS DEBUG] PROM zmniejsza prędkość podczas unikania
[2026-04-15 09:32:16] [AIS DEBUG] PROM unika: skręt w lewo

------------------------------------------------
[2026-04-15 09:32:16] [FIZYKA] SOG: 10.8 kn (Cel: 10.9 kn) | Silnik: Wylaczony (0 RPM)
[2026-04-15 09:32:16] [METEO]  TWS: 34.8 kn z 239 st. | AWS: 30.6 kn (Kąt: 256.3 st.)
[2026-04-15 09:32:16] --- PAKIET NMEA WYSŁANY DO SIECI ---
[2026-04-15 09:32:16] $GPRMC,093216.00,A,5531.6965,N,01800.0000,E,10.8,0.0,150426,5.0,E*68
[2026-04-15 09:32:16] $GPGGA,093216.00,5531.6965,N,01800.0000,E,1,12,1.0,42.9,M,0.0,M,,*69
[2026-04-15 09:32:16] $GPVTG,0.0,T,0.0,M,10.8,N,20.0,K*45
[2026-04-15 09:32:16] $IIHDT,4.0,T*26
[2026-04-15 09:32:16] $WIMWV,256.3,R,30.6,N,A*14
[2026-04-15 09:32:16] $VHW,0.0,T,,M,10.8,N,,K*6C
[2026-04-15 09:32:16] !AIVDM,1,1,,A,13pr;@@00t1Bb=nOiSHFLU;p0000,0*02
[2026-04-15 09:32:16] !AIVDM,1,1,,A,13pr;@P01T1BEOVOgJr0UPOp0000,0*6D
[2026-04-15 09:32:16] !AIVDM,1,1,,A,13pr;@h0001Bng0OhN800?wp0000,0*26
[2026-04-15 09:32:19] [AIS DEBUG] PROM zwiększa prędkość (powrót do bazowej)

------------------------------------------------
[2026-04-15 09:32:19] [FIZYKA] SOG: 10.8 kn (Cel: 10.9 kn) | Silnik: Wylaczony (0 RPM)
[2026-04-15 09:32:19] [METEO]  TWS: 34.8 kn z 239 st. | AWS: 30.6 kn (Kąt: 256.3 st.)
[2026-04-15 09:32:19] --- PAKIET NMEA WYSŁANY DO SIECI ---
[2026-04-15 09:32:19] $GPRMC,093219.00,A,5531.7054,N,01800.0000,E,10.8,0.0,150426,5.0,E*6D
[2026-04-15 09:32:19] $GPGGA,093219.00,5531.7054,N,01800.0000,E,1,12,1.0,43.1,M,0.0,M,,*65
[2026-04-15 09:32:19] $GPVTG,0.0,T,0.0,M,10.8,N,20.0,K*45
[2026-04-15 09:32:19] $IIHDT,4.0,T*26
[2026-04-15 09:32:19] $WIMWV,256.3,R,30.6,N,A*14
[2026-04-15 09:32:19] $VHW,0.0,T,,M,10.8,N,,K*6C
[2026-04-15 09:32:19] $SDDPT,43.1,0.0*61
[2026-04-15 09:32:19] $WIMWD,238.7,T,238.7,M,34.8,N,17.9,M*5A
[2026-04-15 09:32:19] $IIHDG,0.0,,,5.0,E*27
[2026-04-15 09:32:19] !AIVDM,1,1,,A,13pr;@@00v1Bb>HOiS;6WmCp0000,0*7D
[2026-04-15 09:32:19] !AIVDM,1,1,,A,13pr;@P01T1BEPhOgK>0T0Mp0000,0*62
[2026-04-15 09:32:19] !AIVDM,1,1,,A,13pr;@h0001Bng0OhN800?wp0000,0*26
[2026-04-15 09:32:22] [AIS DEBUG] PROM unika: skręt w lewo

------------------------------------------------
[2026-04-15 09:32:22] [FIZYKA] SOG: 10.8 kn (Cel: 10.9 kn) | Silnik: Wylaczony (0 RPM)
[2026-04-15 09:32:22] [METEO]  TWS: 34.8 kn z 239 st. | AWS: 30.6 kn (Kąt: 256.3 st.)
[2026-04-15 09:32:22] --- PAKIET NMEA WYSŁANY DO SIECI ---
[2026-04-15 09:32:22] $GPRMC,093222.00,A,5531.7143,N,01800.0000,E,10.8,0.0,150426,5.0,E*62
[2026-04-15 09:32:22] $GPGGA,093222.00,5531.7143,N,01800.0000,E,1,12,1.0,43.3,M,0.0,M,,*68
[2026-04-15 09:32:22] $GPVTG,0.0,T,0.0,M,10.8,N,20.0,K*45
[2026-04-15 09:32:22] $IIHDT,4.0,T*26
[2026-04-15 09:32:22] $WIMWV,256.3,R,30.6,N,A*14
[2026-04-15 09:32:22] $VHW,0.0,T,,M,10.8,N,,K*6C
[2026-04-15 09:32:22] !AIVDM,1,1,,A,13pr;@@00v1Bb?8OiRvVLU;p0000,0*7B
[2026-04-15 09:32:22] !AIVDM,1,1,,A,13pr;@P01T1BEQpOgKR0RPKp0000,0*77
[2026-04-15 09:32:22] !AIVDM,1,1,,A,13pr;@h0001Bng0OhN800?wp0000,0*26
>>> [AIS] Wysłano Type 24B (Part B)
[2026-04-15 09:32:25] [AIS DEBUG] PROM zwiększa prędkość (powrót do bazowej)

------------------------------------------------
[2026-04-15 09:32:25] [FIZYKA] SOG: 10.8 kn (Cel: 10.9 kn) | Silnik: Wylaczony (0 RPM)
[2026-04-15 09:32:25] [METEO]  TWS: 34.8 kn z 239 st. | AWS: 30.6 kn (Kąt: 256.2 st.)
[2026-04-15 09:32:25] --- PAKIET NMEA WYSŁANY DO SIECI ---
[2026-04-15 09:32:25] $GPRMC,093225.00,A,5531.7233,N,01800.0000,E,10.8,0.0,150426,5.0,E*61
[2026-04-15 09:32:25] $GPGGA,093225.00,5531.7233,N,01800.0000,E,1,12,1.0,43.5,M,0.0,M,,*6D
[2026-04-15 09:32:25] $GPVTG,0.0,T,0.0,M,10.8,N,20.1,K*44
[2026-04-15 09:32:25] $IIHDT,4.0,T*26
[2026-04-15 09:32:25] $WIMWV,256.2,R,30.6,N,A*15
[2026-04-15 09:32:25] $VHW,0.0,T,,M,10.8,N,,K*6C
[2026-04-15 09:32:25] $SDDPT,43.5,0.0*65
[2026-04-15 09:32:25] $WIMWD,238.6,T,238.6,M,34.8,N,17.9,M*5A
[2026-04-15 09:32:25] $IIHDG,0.0,,,5.0,E*27
[2026-04-15 09:32:25] $IIVLW,1.7,N,1.7,N*4D
[2026-04-15 09:32:25] $IIRPM,E,1,0,,A*66
[2026-04-15 09:32:25] $GPZDA,093225.00,15,04,2026,,*6F
[2026-04-15 09:32:25] !AIVDM,1,1,,A,13pr;@@0101Bb?bOiRiFWmCp0000,0*32
[2026-04-15 09:32:25] !AIVDM,1,1,,A,13pr;@P01T1BERrOgKn0Q0Kp0000,0*29
[2026-04-15 09:32:25] !AIVDM,1,1,,A,13pr;@h0001Bng0OhN800?wp0000,0*26
[2026-04-15 09:32:28] [AIS DEBUG] PROM zmniejsza prędkość podczas unikania
[2026-04-15 09:32:28] [AIS DEBUG] PROM unika: skręt w lewo

------------------------------------------------
[2026-04-15 09:32:28] [FIZYKA] SOG: 10.8 kn (Cel: 10.9 kn) | Silnik: Wylaczony (0 RPM)
[2026-04-15 09:32:28] [METEO]  TWS: 34.8 kn z 239 st. | AWS: 30.6 kn (Kąt: 256.2 st.)
[2026-04-15 09:32:28] --- PAKIET NMEA WYSŁANY DO SIECI ---
[2026-04-15 09:32:28] $GPRMC,093228.00,A,5531.7322,N,01800.0000,E,10.8,0.0,150426,5.0,E*6D
[2026-04-15 09:32:28] $GPGGA,093228.00,5531.7322,N,01800.0000,E,1,12,1.0,43.7,M,0.0,M,,*63
[2026-04-15 09:32:28] $GPVTG,0.0,T,0.0,M,10.8,N,20.1,K*44
[2026-04-15 09:32:28] $IIHDT,4.0,T*26
[2026-04-15 09:32:28] $WIMWV,256.2,R,30.6,N,A*15
[2026-04-15 09:32:28] $VHW,0.0,T,,M,10.8,N,,K*6C
[2026-04-15 09:32:28] !AIVDM,1,1,,A,13pr;@@00s1Bb@HOiRUFLU;p0000,0*42
[2026-04-15 09:32:28] !AIVDM,1,1,,A,13pr;@P01T1BESrOgL:hOPIp0000,0*5F
[2026-04-15 09:32:28] !AIVDM,1,1,,A,13pr;@h0001Bng0OhN800?wp0000,0*26
[2026-04-15 09:32:31] [AIS DEBUG] PROM zwiększa prędkość (powrót do bazowej)

------------------------------------------------
[2026-04-15 09:32:31] [FIZYKA] SOG: 10.8 kn (Cel: 10.9 kn) | Silnik: Wylaczony (0 RPM)
[2026-04-15 09:32:31] [METEO]  TWS: 34.8 kn z 238 st. | AWS: 30.5 kn (Kąt: 255.7 st.)
[2026-04-15 09:32:31] --- PAKIET NMEA WYSŁANY DO SIECI ---
[2026-04-15 09:32:31] $GPRMC,093231.00,A,5531.7411,N,01800.0000,E,10.8,0.0,150426,5.0,E*62
[2026-04-15 09:32:31] $GPGGA,093231.00,5531.7411,N,01800.0000,E,1,12,1.0,43.9,M,0.0,M,,*62
[2026-04-15 09:32:31] $GPVTG,0.0,T,0.0,M,10.8,N,20.1,K*44
[2026-04-15 09:32:31] $IIHDT,4.0,T*26
[2026-04-15 09:32:31] $WIMWV,255.7,R,30.5,N,A*10
[2026-04-15 09:32:31] $VHW,0.0,T,,M,10.8,N,,K*6C
[2026-04-15 09:32:31] $SDDPT,43.9,0.0*69
[2026-04-15 09:32:31] $WIMWD,238.2,T,238.2,M,34.8,N,17.9,M*5A
[2026-04-15 09:32:31] $IIHDG,0.0,,,5.0,E*27
[2026-04-15 09:32:31] !AIVDM,1,1,,A,13pr;@@00u1Bb@rOiRHnWmCp0000,0*10
[2026-04-15 09:32:31] !AIVDM,1,1,,A,13pr;@P01T1BETpOgLO@N0Ip0000,0*66
[2026-04-15 09:32:31] !AIVDM,1,1,,A,13pr;@h0001Bng0OhN800?wp0000,0*26
[2026-04-15 09:32:34] [AIS DEBUG] PROM zwiększa prędkość (powrót do bazowej)

------------------------------------------------
[2026-04-15 09:32:34] [FIZYKA] SOG: 10.8 kn (Cel: 10.9 kn) | Silnik: Wylaczony (0 RPM)
[2026-04-15 09:32:34] [METEO]  TWS: 34.8 kn z 238 st. | AWS: 30.5 kn (Kąt: 255.3 st.)
[2026-04-15 09:32:34] --- PAKIET NMEA WYSŁANY DO SIECI ---
[2026-04-15 09:32:34] $GPRMC,093234.00,A,5531.7500,N,01800.0000,E,10.8,0.0,150426,5.0,E*66
[2026-04-15 09:32:34] $GPGGA,093234.00,5531.7500,N,01800.0000,E,1,12,1.0,44.1,M,0.0,M,,*69
[2026-04-15 09:32:34] $GPVTG,0.0,T,0.0,M,10.8,N,20.1,K*44
[2026-04-15 09:32:34] $IIHDT,4.0,T*26
[2026-04-15 09:32:34] $WIMWV,255.3,R,30.5,N,A*14
[2026-04-15 09:32:34] $VHW,0.0,T,,M,10.8,N,,K*6C
[2026-04-15 09:32:34] !AIVDM,1,1,,A,13pr;@@00w1BbA>OiR;Vk5Mp0000,0*7E
[2026-04-15 09:32:34] !AIVDM,1,1,,A,13pr;@P01T1BEUhOgLl0LPGp0000,0*40
[2026-04-15 09:32:34] !AIVDM,1,1,,A,13pr;@h0001Bng0OhN800?wp0000,0*26
[2026-04-15 09:32:37] [AIS DEBUG] PROM unika: skręt w lewo

------------------------------------------------
[2026-04-15 09:32:37] [FIZYKA] SOG: 10.8 kn (Cel: 10.9 kn) | Silnik: Wylaczony (0 RPM)
[2026-04-15 09:32:37] [METEO]  TWS: 34.8 kn z 237 st. | AWS: 30.4 kn (Kąt: 254.9 st.)
[2026-04-15 09:32:37] --- PAKIET NMEA WYSŁANY DO SIECI ---
[2026-04-15 09:32:37] $GPRMC,093237.00,A,5531.7590,N,01800.0000,E,10.8,0.0,150426,5.0,E*6C
[2026-04-15 09:32:37] $GPGGA,093237.00,5531.7590,N,01800.0000,E,1,12,1.0,44.2,M,0.0,M,,*60
[2026-04-15 09:32:37] $GPVTG,0.0,T,0.0,M,10.8,N,20.1,K*44
[2026-04-15 09:32:37] $IIHDT,4.0,T*26
[2026-04-15 09:32:37] $WIMWV,254.9,R,30.4,N,A*1E
[2026-04-15 09:32:37] $VHW,0.0,T,,M,10.8,N,,K*6C
[2026-04-15 09:32:37] $SDDPT,44.2,0.0*65
[2026-04-15 09:32:37] $WIMWD,237.4,T,237.4,M,34.8,N,17.9,M*5A
[2026-04-15 09:32:37] $IIHDG,0.0,,,5.0,E*27
[2026-04-15 09:32:37] !AIVDM,1,1,,A,13pr;@@00w1BbAjOiQvFWmCp0000,0*1E
[2026-04-15 09:32:37] !AIVDM,1,1,,A,13pr;@P01T1BEV`OgM8PK0Ep0000,0*1B
[2026-04-15 09:32:37] !AIVDM,1,1,,A,13pr;@h0001Bng0OhN800?wp0000,0*26
[2026-04-15 09:32:40] [AIS DEBUG] PROM zwiększa prędkość (powrót do bazowej)

------------------------------------------------
[2026-04-15 09:32:40] [FIZYKA] SOG: 10.8 kn (Cel: 10.9 kn) | Silnik: Wylaczony (0 RPM)
[2026-04-15 09:32:40] [METEO]  TWS: 34.9 kn z 237 st. | AWS: 30.3 kn (Kąt: 254.5 st.)
[2026-04-15 09:32:40] --- PAKIET NMEA WYSŁANY DO SIECI ---
[2026-04-15 09:32:40] $GPRMC,093240.00,A,5531.7679,N,01800.0000,E,10.8,0.0,150426,5.0,E*68
[2026-04-15 09:32:40] $GPGGA,093240.00,5531.7679,N,01800.0000,E,1,12,1.0,44.4,M,0.0,M,,*62
[2026-04-15 09:32:40] $GPVTG,0.0,T,0.0,M,10.8,N,20.1,K*44
[2026-04-15 09:32:40] $IIHDT,4.0,T*26
[2026-04-15 09:32:40] $WIMWV,254.5,R,30.3,N,A*15
[2026-04-15 09:32:40] $VHW,0.0,T,,M,10.8,N,,K*6C
[2026-04-15 09:32:40] $IIVLW,1.8,N,1.8,N*4D
[2026-04-15 09:32:40] $IIRPM,E,1,0,,A*66
[2026-04-15 09:32:40] $GPZDA,093240.00,15,04,2026,,*6C
[2026-04-15 09:32:40] !AIVDM,1,1,,A,13pr;@@0111BbB6OiQhVk5Mp0000,0*62
[2026-04-15 09:32:40] !AIVDM,1,1,,A,13pr;@P01T1BEWLOgMM0IPEp0000,0*41
[2026-04-15 09:32:40] !AIVDM,1,1,,A,13pr;@h0001Bng0OhN800?wp0000,0*26
[2026-04-15 09:32:43] [AIS DEBUG] PROM zmniejsza prędkość podczas unikania
[2026-04-15 09:32:43] [AIS DEBUG] PROM unika: skręt w lewo

------------------------------------------------
[2026-04-15 09:32:43] [FIZYKA] SOG: 10.9 kn (Cel: 10.9 kn) | Silnik: Wylaczony (0 RPM)
[2026-04-15 09:32:43] [METEO]  TWS: 34.9 kn z 237 st. | AWS: 30.3 kn (Kąt: 254.1 st.)
[2026-04-15 09:32:43] --- PAKIET NMEA WYSŁANY DO SIECI ---
[2026-04-15 09:32:43] $GPRMC,093243.00,A,5531.7770,N,01800.0000,E,10.9,0.0,150426,5.0,E*62
[2026-04-15 09:32:43] $GPGGA,093243.00,5531.7770,N,01800.0000,E,1,12,1.0,44.5,M,0.0,M,,*68
[2026-04-15 09:32:43] $GPVTG,0.0,T,0.0,M,10.9,N,20.1,K*45
[2026-04-15 09:32:43] $IIHDT,4.0,T*26
[2026-04-15 09:32:43] $WIMWV,254.1,R,30.3,N,A*11
[2026-04-15 09:32:43] $VHW,0.0,T,,M,10.9,N,,K*6D
[2026-04-15 09:32:43] $SDDPT,44.5,0.0*62
[2026-04-15 09:32:43] $WIMWD,236.7,T,236.7,M,34.9,N,17.9,M*5B
[2026-04-15 09:32:43] $IIHDG,0.0,,,5.0,E*27
[2026-04-15 09:32:43] !AIVDM,1,1,,A,13pr;@@00t1BbBVOiQT6WmCp0000,0*70
[2026-04-15 09:32:43] !AIVDM,1,1,,A,13pr;@P01T1BE`<OgMihH0Cp0000,0*1D
[2026-04-15 09:32:43] !AIVDM,1,1,,A,13pr;@h0001Bng0OhN800?wp0000,0*26
[2026-04-15 09:32:46] [AIS DEBUG] PROM zwiększa prędkość (powrót do bazowej)

------------------------------------------------
[2026-04-15 09:32:46] [FIZYKA] SOG: 10.9 kn (Cel: 10.9 kn) | Silnik: Wylaczony (0 RPM)
[2026-04-15 09:32:46] [METEO]  TWS: 34.9 kn z 236 st. | AWS: 30.2 kn (Kąt: 253.7 st.)
[2026-04-15 09:32:46] --- PAKIET NMEA WYSŁANY DO SIECI ---
[2026-04-15 09:32:46] $GPRMC,093246.00,A,5531.7862,N,01800.0000,E,10.9,0.0,150426,5.0,E*6B
[2026-04-15 09:32:46] $GPGGA,093246.00,5531.7862,N,01800.0000,E,1,12,1.0,44.7,M,0.0,M,,*63
[2026-04-15 09:32:46] $GPVTG,0.0,T,0.0,M,10.9,N,20.1,K*45
[2026-04-15 09:32:46] $IIHDT,4.0,T*26
[2026-04-15 09:32:46] $WIMWV,253.7,R,30.2,N,A*11
[2026-04-15 09:32:46] $VHW,0.0,T,,M,10.9,N,,K*6D
[2026-04-15 09:32:46] !AIVDM,1,1,,A,13pr;@@00v1BbBpOiQFnk5Mp0000,0*74
[2026-04-15 09:32:46] !AIVDM,1,1,,A,13pr;@P01T1BE`rOgN6@FPCp0000,0*49
[2026-04-15 09:32:46] !AIVDM,1,1,,A,13pr;@h0001Bng0OhN800?wp0000,0*26
[2026-04-15 09:32:49] [AIS DEBUG] PROM unika: skręt w lewo

------------------------------------------------
[2026-04-15 09:32:49] [FIZYKA] SOG: 10.9 kn (Cel: 11.0 kn) | Silnik: Wylaczony (0 RPM)
[2026-04-15 09:32:49] [METEO]  TWS: 34.9 kn z 236 st. | AWS: 30.2 kn (Kąt: 253.4 st.)
[2026-04-15 09:32:49] --- PAKIET NMEA WYSŁANY DO SIECI ---
[2026-04-15 09:32:49] $GPRMC,093249.00,A,5531.7953,N,01800.0000,E,10.9,0.0,150426,5.0,E*67
[2026-04-15 09:32:49] $GPGGA,093249.00,5531.7953,N,01800.0000,E,1,12,1.0,44.8,M,0.0,M,,*60
[2026-04-15 09:32:49] $GPVTG,0.0,T,0.0,M,10.9,N,20.1,K*45
[2026-04-15 09:32:49] $IIHDT,4.0,T*26
[2026-04-15 09:32:49] $WIMWV,253.4,R,30.2,N,A*12
[2026-04-15 09:32:49] $VHW,0.0,T,,M,10.9,N,,K*6D
[2026-04-15 09:32:49] $SDDPT,44.8,0.0*6F
[2026-04-15 09:32:49] $WIMWD,236.0,T,236.0,M,34.9,N,18.0,M*5D
[2026-04-15 09:32:49] $IIHDG,0.0,,,5.0,E*27
[2026-04-15 09:32:49] !AIVDM,1,1,,A,13pr;@@00v1BbCJOiQ9nWmCp0000,0*5A
[2026-04-15 09:32:49] !AIVDM,1,1,,A,13pr;@P01T1BEaVOgNK0E0Ap0000,0*00
[2026-04-15 09:32:49] !AIVDM,1,1,,A,13pr;@h0001Bng0OhN800?wp0000,0*26
[2026-04-15 09:32:52] [AIS DEBUG] PROM zwiększa prędkość (powrót do bazowej)

------------------------------------------------
[2026-04-15 09:32:52] [FIZYKA] SOG: 10.9 kn (Cel: 11.0 kn) | Silnik: Wylaczony (0 RPM)
[2026-04-15 09:32:52] [METEO]  TWS: 34.9 kn z 236 st. | AWS: 30.2 kn (Kąt: 253.0 st.)
[2026-04-15 09:32:52] --- PAKIET NMEA WYSŁANY DO SIECI ---
[2026-04-15 09:32:52] $GPRMC,093252.00,A,5531.8045,N,01800.0000,E,10.9,0.0,150426,5.0,E*6C
[2026-04-15 09:32:52] $GPGGA,093252.00,5531.8045,N,01800.0000,E,1,12,1.0,44.9,M,0.0,M,,*6A
[2026-04-15 09:32:52] $GPVTG,0.0,T,0.0,M,10.9,N,20.1,K*45
[2026-04-15 09:32:52] $IIHDT,4.0,T*26
[2026-04-15 09:32:52] $WIMWV,253.0,R,30.2,N,A*16
[2026-04-15 09:32:52] $VHW,0.0,T,,M,10.9,N,,K*6D
[2026-04-15 09:32:52] !AIVDM,1,1,,A,13pr;@@0101BbChOiPt6k5Mp0000,0*41
[2026-04-15 09:32:52] !AIVDM,1,1,,A,13pr;@P01T1BEb<OgNgPCP?p0000,0*3D
[2026-04-15 09:32:52] !AIVDM,1,1,,A,13pr;@h0001Bng0OhN800?wp0000,0*26
[2026-04-15 09:32:55] [AIS DEBUG] PROM zmniejsza prędkość podczas unikania
[2026-04-15 09:32:55] [AIS DEBUG] PROM unika: skręt w lewo

------------------------------------------------
[2026-04-15 09:32:55] [FIZYKA] SOG: 10.9 kn (Cel: 11.0 kn) | Silnik: Wylaczony (0 RPM)
[2026-04-15 09:32:55] [METEO]  TWS: 34.9 kn z 235 st. | AWS: 30.1 kn (Kąt: 252.7 st.)
[2026-04-15 09:32:55] --- PAKIET NMEA WYSŁANY DO SIECI ---
[2026-04-15 09:32:55] $GPRMC,093255.00,A,5531.8137,N,01800.0000,E,10.9,0.0,150426,5.0,E*6F
[2026-04-15 09:32:55] $GPGGA,093255.00,5531.8137,N,01800.0000,E,1,12,1.0,45.0,M,0.0,M,,*61
[2026-04-15 09:32:55] $GPVTG,0.0,T,0.0,M,10.9,N,20.1,K*45
[2026-04-15 09:32:55] $IIHDT,4.0,T*26
[2026-04-15 09:32:55] $WIMWV,252.7,R,30.1,N,A*13
[2026-04-15 09:32:55] $VHW,0.0,T,,M,10.9,N,,K*6D
[2026-04-15 09:32:55] $SDDPT,45.0,0.0*66
[2026-04-15 09:32:55] $WIMWD,235.4,T,235.4,M,34.9,N,18.0,M*5D
[2026-04-15 09:32:55] $IIHDG,0.0,,,5.0,E*27
[2026-04-15 09:32:55] $IIVLW,1.8,N,1.8,N*4D
[2026-04-15 09:32:55] $IIRPM,E,1,0,,A*66
[2026-04-15 09:32:55] $GPZDA,093255.00,15,04,2026,,*68
[2026-04-15 09:32:55] !AIVDM,1,1,,A,13pr;@@00s1BbD@OiPh6WmCp0000,0*5A
[2026-04-15 09:32:55] !AIVDM,1,1,,A,13pr;@P01T1BEbhOgO40B0?p0000,0*3A
[2026-04-15 09:32:55] !AIVDM,1,1,,A,13pr;@h0001Bng0OhN800?wp0000,0*26
[2026-04-15 09:32:58] [AIS DEBUG] PROM zwiększa prędkość (powrót do bazowej)

------------------------------------------------
[2026-04-15 09:32:58] [FIZYKA] SOG: 10.9 kn (Cel: 11.0 kn) | Silnik: Wylaczony (0 RPM)
[2026-04-15 09:32:58] [METEO]  TWS: 34.9 kn z 235 st. | AWS: 30.1 kn (Kąt: 252.4 st.)
[2026-04-15 09:32:58] --- PAKIET NMEA WYSŁANY DO SIECI ---
[2026-04-15 09:32:58] $GPRMC,093258.00,A,5531.8228,N,01800.0000,E,10.9,0.0,150426,5.0,E*6F
[2026-04-15 09:32:58] $GPGGA,093258.00,5531.8228,N,01800.0000,E,1,12,1.0,45.2,M,0.0,M,,*63
[2026-04-15 09:32:58] $GPVTG,0.0,T,0.0,M,10.9,N,20.1,K*45
[2026-04-15 09:32:58] $IIHDT,4.0,T*26
[2026-04-15 09:32:58] $WIMWV,252.4,R,30.1,N,A*10
[2026-04-15 09:32:58] $VHW,0.0,T,,M,10.9,N,,K*6D
[2026-04-15 09:32:58] !AIVDM,1,1,,A,13pr;@@00u1BbDROiPSFk5Mp0000,0*6F
[2026-04-15 09:32:58] !AIVDM,1,1,,A,13pr;@P01T1BEcDOgOHh@P=p0000,0*53
[2026-04-15 09:32:58] !AIVDM,1,1,,A,13pr;@h0001Bng0OhN800?wp0000,0*26
[2026-04-15 09:33:01] [AIS DEBUG] PROM unika: skręt w lewo

------------------------------------------------
[2026-04-15 09:33:01] [FIZYKA] SOG: 10.9 kn (Cel: 11.0 kn) | Silnik: Wylaczony (0 RPM)
[2026-04-15 09:33:01] [METEO]  TWS: 34.9 kn z 235 st. | AWS: 30.0 kn (Kąt: 252.1 st.)
[2026-04-15 09:33:01] --- PAKIET NMEA WYSŁANY DO SIECI ---
[2026-04-15 09:33:01] $GPRMC,093301.00,A,5531.8320,N,01800.0000,E,10.9,0.0,150426,5.0,E*6B
[2026-04-15 09:33:01] $GPGGA,093301.00,5531.8320,N,01800.0000,E,1,12,1.0,45.3,M,0.0,M,,*66
[2026-04-15 09:33:01] $GPVTG,0.0,T,0.0,M,10.9,N,20.2,K*46
[2026-04-15 09:33:01] $IIHDT,4.0,T*26
[2026-04-15 09:33:01] $WIMWV,252.1,R,30.0,N,A*14
[2026-04-15 09:33:01] $VHW,0.0,T,,M,10.9,N,,K*6D
[2026-04-15 09:33:01] $SDDPT,45.3,0.0*65
[2026-04-15 09:33:01] $WIMWD,234.9,T,234.9,M,34.9,N,18.0,M*5D
[2026-04-15 09:33:01] $IIHDG,0.0,,,5.0,E*27
[2026-04-15 09:33:01] !AIVDM,1,1,,A,13pr;@@00u1BbE4OiPFnWmCp0000,0*5F
[2026-04-15 09:33:01] !AIVDM,1,1,,A,13pr;@P01T1BEcjOgOe@?0=p0000,0*67
[2026-04-15 09:33:01] !AIVDM,1,1,,A,13pr;@h0001Bng0OhN800?wp0000,0*26
[2026-04-15 09:33:04] [AIS DEBUG] PROM zwiększa prędkość (powrót do bazowej)

------------------------------------------------
[2026-04-15 09:33:04] [FIZYKA] SOG: 10.9 kn (Cel: 11.0 kn) | Silnik: Wylaczony (0 RPM)
[2026-04-15 09:33:04] [METEO]  TWS: 34.9 kn z 235 st. | AWS: 30.0 kn (Kąt: 251.9 st.)
[2026-04-15 09:33:04] --- PAKIET NMEA WYSŁANY DO SIECI ---
[2026-04-15 09:33:04] $GPRMC,093304.00,A,5531.8411,N,01800.0000,E,10.9,0.0,150426,5.0,E*6B
[2026-04-15 09:33:04] $GPGGA,093304.00,5531.8411,N,01800.0000,E,1,12,1.0,45.4,M,0.0,M,,*61
[2026-04-15 09:33:04] $GPVTG,0.0,T,0.0,M,10.9,N,20.2,K*46
[2026-04-15 09:33:04] $IIHDT,4.0,T*26
[2026-04-15 09:33:04] $WIMWV,251.9,R,30.0,N,A*1F
[2026-04-15 09:33:04] $VHW,0.0,T,,M,10.9,N,,K*6D
[2026-04-15 09:33:04] !AIVDM,1,1,,A,13pr;@@00w1BbEHOiP9Vk5Mp0000,0*0C
[2026-04-15 09:33:04] !AIVDM,1,1,,A,13pr;@P01T1BEd<OgP20=P;p0000,0*6A
[2026-04-15 09:33:04] !AIVDM,1,1,,A,13pr;@h0001Bng0OhN800?wp0000,0*26
[2026-04-15 09:33:07] [AIS DEBUG] PROM zwiększa prędkość (powrót do bazowej)

------------------------------------------------
[2026-04-15 09:33:07] [FIZYKA] SOG: 10.9 kn (Cel: 11.0 kn) | Silnik: Wylaczony (0 RPM)
[2026-04-15 09:33:07] [METEO]  TWS: 34.9 kn z 234 st. | AWS: 29.9 kn (Kąt: 251.6 st.)
[2026-04-15 09:33:07] --- PAKIET NMEA WYSŁANY DO SIECI ---
[2026-04-15 09:33:07] $GPRMC,093307.00,A,5531.8503,N,01800.0000,E,10.9,0.0,150426,5.0,E*6A
[2026-04-15 09:33:07] $GPGGA,093307.00,5531.8503,N,01800.0000,E,1,12,1.0,45.5,M,0.0,M,,*61
[2026-04-15 09:33:07] $GPVTG,0.0,T,0.0,M,10.9,N,20.2,K*46
[2026-04-15 09:33:07] $IIHDT,4.0,T*26
[2026-04-15 09:33:07] $WIMWV,251.6,R,29.9,N,A*11
[2026-04-15 09:33:07] $VHW,0.0,T,,M,10.9,N,,K*6D
[2026-04-15 09:33:07] $SDDPT,45.5,0.0*63
[2026-04-15 09:33:07] $WIMWD,234.4,T,234.4,M,34.9,N,18.0,M*5D
[2026-04-15 09:33:07] $IIHDG,0.0,,,5.0,E*27
[2026-04-15 09:33:07] !AIVDM,1,1,,A,13pr;@@0111BbELOiOsnvEUp0000,0*57
[2026-04-15 09:33:07] !AIVDM,1,1,,A,13pr;@P01T1BEdVOgPFP<09p0000,0*77
[2026-04-15 09:33:07] !AIVDM,1,1,,A,13pr;@h0001Bng0OhN800?wp0000,0*26
[2026-04-15 09:33:10] [AIS DEBUG] PROM zmniejsza prędkość podczas unikania
[2026-04-15 09:33:10] [AIS DEBUG] PROM unika: skręt w lewo

------------------------------------------------
[2026-04-15 09:33:10] [FIZYKA] SOG: 10.9 kn (Cel: 11.0 kn) | Silnik: Wylaczony (0 RPM)
[2026-04-15 09:33:10] [METEO]  TWS: 35.0 kn z 234 st. | AWS: 29.9 kn (Kąt: 251.4 st.)
[2026-04-15 09:33:10] --- PAKIET NMEA WYSŁANY DO SIECI ---
[2026-04-15 09:33:10] $GPRMC,093310.00,A,5531.8594,N,01800.0000,E,10.9,0.0,150426,5.0,E*62
[2026-04-15 09:33:10] $GPGGA,093310.00,5531.8594,N,01800.0000,E,1,12,1.0,45.6,M,0.0,M,,*6A
[2026-04-15 09:33:10] $GPVTG,0.0,T,0.0,M,10.9,N,20.2,K*46
[2026-04-15 09:33:10] $IIHDT,4.0,T*26
[2026-04-15 09:33:10] $WIMWV,251.4,R,29.9,N,A*13
[2026-04-15 09:33:10] $VHW,0.0,T,,M,10.9,N,,K*6D
[2026-04-15 09:33:10] $IIVLW,1.9,N,1.9,N*4D
[2026-04-15 09:33:10] $IIRPM,E,1,0,,A*66
[2026-04-15 09:33:10] $GPZDA,093310.00,15,04,2026,,*68
[2026-04-15 09:33:10] !AIVDM,1,1,,A,13pr;@@00t1BbEhOiOgFk5Mp0000,0*7E
[2026-04-15 09:33:10] !AIVDM,1,1,,A,13pr;@P01T1BEdrOgPc0:P9p0000,0*70
[2026-04-15 09:33:10] !AIVDM,1,1,,A,13pr;@h0001Bng0OhN800?wp0000,0*26
[2026-04-15 09:33:13] [AIS DEBUG] PROM zwiększa prędkość (powrót do bazowej)

------------------------------------------------
[2026-04-15 09:33:13] [FIZYKA] SOG: 10.9 kn (Cel: 11.0 kn) | Silnik: Wylaczony (0 RPM)
[2026-04-15 09:33:13] [METEO]  TWS: 35.0 kn z 234 st. | AWS: 29.9 kn (Kąt: 251.2 st.)
[2026-04-15 09:33:13] --- PAKIET NMEA WYSŁANY DO SIECI ---
[2026-04-15 09:33:13] $GPRMC,093313.00,A,5531.8686,N,01800.0000,E,10.9,0.0,150426,5.0,E*61
[2026-04-15 09:33:13] $GPGGA,093313.00,5531.8686,N,01800.0000,E,1,12,1.0,45.6,M,0.0,M,,*69
[2026-04-15 09:33:13] $GPVTG,0.0,T,0.0,M,10.9,N,20.2,K*46
[2026-04-15 09:33:13] $IIHDT,4.0,T*26
[2026-04-15 09:33:13] $WIMWV,251.2,R,29.9,N,A*15
[2026-04-15 09:33:13] $VHW,0.0,T,,M,10.9,N,,K*6D
[2026-04-15 09:33:13] $SDDPT,45.6,0.0*60
[2026-04-15 09:33:13] $WIMWD,234.0,T,234.0,M,35.0,N,18.0,M*55
[2026-04-15 09:33:13] $IIHDG,0.0,,,5.0,E*27
[2026-04-15 09:33:13] !AIVDM,1,1,,A,13pr;@@00v1BbElOiOR6vEUp0000,0*48
[2026-04-15 09:33:13] !AIVDM,1,1,,A,13pr;@P01T1BEe<OgPwh907p0000,0*1E
[2026-04-15 09:33:13] !AIVDM,1,1,,A,13pr;@h0001Bng0OhN800?wp0000,0*26
[2026-04-15 09:33:16] [AIS DEBUG] PROM unika: skręt w lewo

------------------------------------------------
[2026-04-15 09:33:16] [FIZYKA] SOG: 10.9 kn (Cel: 11.0 kn) | Silnik: Wylaczony (0 RPM)
[2026-04-15 09:33:16] [METEO]  TWS: 35.0 kn z 234 st. | AWS: 29.8 kn (Kąt: 250.9 st.)
[2026-04-15 09:33:16] --- PAKIET NMEA WYSŁANY DO SIECI ---
[2026-04-15 09:33:16] $GPRMC,093316.00,A,5531.8777,N,01800.0000,E,10.9,0.0,150426,5.0,E*6B
[2026-04-15 09:33:16] $GPGGA,093316.00,5531.8777,N,01800.0000,E,1,12,1.0,45.7,M,0.0,M,,*62
[2026-04-15 09:33:16] $GPVTG,0.0,T,0.0,M,10.9,N,20.2,K*46
[2026-04-15 09:33:16] $IIHDT,4.0,T*26
[2026-04-15 09:33:16] $WIMWV,250.9,R,29.8,N,A*1E
[2026-04-15 09:33:16] $VHW,0.0,T,,M,10.9,N,,K*6D
[2026-04-15 09:33:16] !AIVDM,1,1,,A,13pr;@@00v1BbF6OiOE6k5Mp0000,0*73
[2026-04-15 09:33:16] !AIVDM,1,1,,A,13pr;@P01T1BEeLOgQD@7P7p0000,0*1A
[2026-04-15 09:33:16] !AIVDM,1,1,,A,13pr;@h0001Bng0OhN800?wp0000,0*26
[2026-04-15 09:33:19] [AIS DEBUG] PROM zwiększa prędkość (powrót do bazowej)

------------------------------------------------
[2026-04-15 09:33:19] [FIZYKA] SOG: 10.9 kn (Cel: 11.0 kn) | Silnik: Wylaczony (0 RPM)
[2026-04-15 09:33:19] [METEO]  TWS: 35.0 kn z 234 st. | AWS: 29.9 kn (Kąt: 251.0 st.)
[2026-04-15 09:33:19] --- PAKIET NMEA WYSŁANY DO SIECI ---
[2026-04-15 09:33:19] $GPRMC,093319.00,A,5531.8869,N,01800.0000,E,10.9,0.0,150426,5.0,E*64
[2026-04-15 09:33:19] $GPGGA,093319.00,5531.8869,N,01800.0000,E,1,12,1.0,45.8,M,0.0,M,,*62
[2026-04-15 09:33:19] $GPVTG,0.0,T,0.0,M,10.9,N,20.2,K*46
[2026-04-15 09:33:19] $IIHDT,4.0,T*26
[2026-04-15 09:33:19] $WIMWV,251.0,R,29.9,N,A*17
[2026-04-15 09:33:19] $VHW,0.0,T,,M,10.9,N,,K*6D
[2026-04-15 09:33:19] $SDDPT,45.8,0.0*6E
[2026-04-15 09:33:19] $WIMWD,233.8,T,233.8,M,35.0,N,18.0,M*55
[2026-04-15 09:33:19] $IIHDG,0.0,,,5.0,E*27
[2026-04-15 09:33:19] !AIVDM,1,1,,A,13pr;@@0101BbF:OiO7FvEUp0000,0*4F
[2026-04-15 09:33:19] !AIVDM,1,1,,A,13pr;@P01T1BEe`OgQa0605p0000,0*00
[2026-04-15 09:33:19] !AIVDM,1,1,,A,13pr;@h0001Bng0OhN800?wp0000,0*26
[2026-04-15 09:33:22] [AIS DEBUG] PROM zmniejsza prędkość podczas unikania
[2026-04-15 09:33:22] [AIS DEBUG] PROM unika: skręt w lewo

------------------------------------------------
[2026-04-15 09:33:22] [FIZYKA] SOG: 10.9 kn (Cel: 11.0 kn) | Silnik: Wylaczony (0 RPM)
[2026-04-15 09:33:22] [METEO]  TWS: 35.0 kn z 234 st. | AWS: 29.9 kn (Kąt: 251.1 st.)
[2026-04-15 09:33:22] --- PAKIET NMEA WYSŁANY DO SIECI ---
[2026-04-15 09:33:22] $GPRMC,093322.00,A,5531.8961,N,01800.0000,E,10.9,0.0,150426,5.0,E*65
[2026-04-15 09:33:22] $GPGGA,093322.00,5531.8961,N,01800.0000,E,1,12,1.0,45.9,M,0.0,M,,*62
[2026-04-15 09:33:22] $GPVTG,0.0,T,0.0,M,10.9,N,20.2,K*46
[2026-04-15 09:33:22] $IIHDT,4.0,T*26
[2026-04-15 09:33:22] $WIMWV,251.1,R,29.9,N,A*16
[2026-04-15 09:33:22] $VHW,0.0,T,,M,10.9,N,,K*6D
[2026-04-15 09:33:22] !AIVDM,1,1,,A,13pr;@@00s1BbFLOiNrnk5Mp0000,0*62
[2026-04-15 09:33:22] !AIVDM,1,1,,A,13pr;@P01T1BEejOgQuP4P3p0000,0*1A
[2026-04-15 09:33:22] !AIVDM,1,1,,A,13pr;@h0001Bng0OhN800?wp0000,0*26
